[
    {
        "driverId": 1,
        "driverRef": "hamilton",
        "number": 44,
        "code": "HAM",
        "forename": "Lewis",
        "surname": "Hamilton",
        "dob": "1985-01-07",
        "url": "http://en.wikipedia.org/wiki/Lewis_Hamilton",
        "coordinates": {
            "latitude": 51.509865,
            "longitude": -0.118092
        }
    },
    {
        "driverId": 2,
        "driverRef": "heidfeld",
        "number": "\\N",
        "code": "HEI",
        "forename": "Nick",
        "surname": "Heidfeld",
        "dob": "1977-05-10",
        "url": "http://en.wikipedia.org/wiki/Nick_Heidfeld",
        "coordinates": {
            "latitude": 51.165691,
            "longitude": 10.451526
        }
    },
    {
        "driverId": 3,
        "driverRef": "rosberg",
        "number": 6,
        "code": "ROS",
        "forename": "Nico",
        "surname": "Rosberg",
        "dob": "1985-06-27",
        "url": "http://en.wikipedia.org/wiki/Nico_Rosberg",
        "coordinates": {
            "latitude": 51.165691,
            "longitude": 10.451526
        }
    },
    {
        "driverId": 4,
        "driverRef": "alonso",
        "number": 14,
        "code": "ALO",
        "forename": "Fernando",
        "surname": "Alonso",
        "dob": "1981-07-29",
        "url": "http://en.wikipedia.org/wiki/Fernando_Alonso",
        "coordinates": {
            "latitude": 40.416775,
            "longitude": -3.70379
        }
    },
    {
        "driverId": 5,
        "driverRef": "kovalainen",
        "number": "\\N",
        "code": "KOV",
        "forename": "Heikki",
        "surname": "Kovalainen",
        "dob": "1981-10-19",
        "url": "http://en.wikipedia.org/wiki/Heikki_Kovalainen",
        "coordinates": {
            "latitude": 60.169856,
            "longitude": 24.938379
        }
    },
    {
        "driverId": 6,
        "driverRef": "nakajima",
        "number": "\\N",
        "code": "NAK",
        "forename": "Kazuki",
        "surname": "Nakajima",
        "dob": "1985-01-11",
        "url": "http://en.wikipedia.org/wiki/Kazuki_Nakajima",
        "coordinates": {
            "latitude": 35.689487,
            "longitude": 139.691711
        }
    },
    {
        "driverId": 7,
        "driverRef": "bourdais",
        "number": "\\N",
        "code": "BOU",
        "forename": "S\u00e9bastien",
        "surname": "Bourdais",
        "dob": "1979-02-28",
        "url": "http://en.wikipedia.org/wiki/S%C3%A9bastien_Bourdais",
        "coordinates": {
            "latitude": 48.856613,
            "longitude": 2.352222
        }
    },
    {
        "driverId": 8,
        "driverRef": "raikkonen",
        "number": 7,
        "code": "RAI",
        "forename": "Kimi",
        "surname": "R\u00e4ikk\u00f6nen",
        "dob": "1979-10-17",
        "url": "http://en.wikipedia.org/wiki/Kimi_R%C3%A4ikk%C3%B6nen",
        "coordinates": {
            "latitude": 60.169856,
            "longitude": 24.938379
        }
    },
    {
        "driverId": 9,
        "driverRef": "kubica",
        "number": 88,
        "code": "KUB",
        "forename": "Robert",
        "surname": "Kubica",
        "dob": "1984-12-07",
        "url": "http://en.wikipedia.org/wiki/Robert_Kubica",
        "coordinates": {
            "latitude": 52.229676,
            "longitude": 21.012229
        }
    },
    {
        "driverId": 10,
        "driverRef": "glock",
        "number": "\\N",
        "code": "GLO",
        "forename": "Timo",
        "surname": "Glock",
        "dob": "1982-03-18",
        "url": "http://en.wikipedia.org/wiki/Timo_Glock",
        "coordinates": {
            "latitude": 51.165691,
            "longitude": 10.451526
        }
    },
    {
        "driverId": 11,
        "driverRef": "sato",
        "number": "\\N",
        "code": "SAT",
        "forename": "Takuma",
        "surname": "Sato",
        "dob": "1977-01-28",
        "url": "http://en.wikipedia.org/wiki/Takuma_Sato",
        "coordinates": {
            "latitude": 35.689487,
            "longitude": 139.691711
        }
    },
    {
        "driverId": 12,
        "driverRef": "piquet_jr",
        "number": "\\N",
        "code": "PIQ",
        "forename": "Nelson",
        "surname": "Piquet Jr.",
        "dob": "1985-07-25",
        "url": "http://en.wikipedia.org/wiki/Nelson_Piquet,_Jr.",
        "coordinates": {
            "latitude": -14.235004,
            "longitude": -51.92528
        }
    },
    {
        "driverId": 13,
        "driverRef": "massa",
        "number": 19,
        "code": "MAS",
        "forename": "Felipe",
        "surname": "Massa",
        "dob": "1981-04-25",
        "url": "http://en.wikipedia.org/wiki/Felipe_Massa",
        "coordinates": {
            "latitude": -14.235004,
            "longitude": -51.92528
        }
    },
    {
        "driverId": 14,
        "driverRef": "coulthard",
        "number": "\\N",
        "code": "COU",
        "forename": "David",
        "surname": "Coulthard",
        "dob": "1971-03-27",
        "url": "http://en.wikipedia.org/wiki/David_Coulthard",
        "coordinates": {
            "latitude": 51.509865,
            "longitude": -0.118092
        }
    },
    {
        "driverId": 15,
        "driverRef": "trulli",
        "number": "\\N",
        "code": "TRU",
        "forename": "Jarno",
        "surname": "Trulli",
        "dob": "1974-07-13",
        "url": "http://en.wikipedia.org/wiki/Jarno_Trulli",
        "coordinates": {
            "latitude": 41.902783,
            "longitude": 12.496366
        }
    },
    {
        "driverId": 16,
        "driverRef": "sutil",
        "number": 99,
        "code": "SUT",
        "forename": "Adrian",
        "surname": "Sutil",
        "dob": "1983-01-11",
        "url": "http://en.wikipedia.org/wiki/Adrian_Sutil",
        "coordinates": {
            "latitude": 51.165691,
            "longitude": 10.451526
        }
    },
    {
        "driverId": 17,
        "driverRef": "webber",
        "number": "\\N",
        "code": "WEB",
        "forename": "Mark",
        "surname": "Webber",
        "dob": "1976-08-27",
        "url": "http://en.wikipedia.org/wiki/Mark_Webber_(racing_driver)",
        "coordinates": {
            "latitude": -25.274398,
            "longitude": 133.775136
        }
    },
    {
        "driverId": 18,
        "driverRef": "button",
        "number": 22,
        "code": "BUT",
        "forename": "Jenson",
        "surname": "Button",
        "dob": "1980-01-19",
        "url": "http://en.wikipedia.org/wiki/Jenson_Button",
        "coordinates": {
            "latitude": 51.509865,
            "longitude": -0.118092
        }
    },
    {
        "driverId": 19,
        "driverRef": "davidson",
        "number": "\\N",
        "code": "DAV",
        "forename": "Anthony",
        "surname": "Davidson",
        "dob": "1979-04-18",
        "url": "http://en.wikipedia.org/wiki/Anthony_Davidson",
        "coordinates": {
            "latitude": 51.509865,
            "longitude": -0.118092
        }
    },
    {
        "driverId": 20,
        "driverRef": "vettel",
        "number": 5,
        "code": "VET",
        "forename": "Sebastian",
        "surname": "Vettel",
        "dob": "1987-07-03",
        "url": "http://en.wikipedia.org/wiki/Sebastian_Vettel",
        "coordinates": {
            "latitude": 51.165691,
            "longitude": 10.451526
        }
    },
    {
        "driverId": 21,
        "driverRef": "fisichella",
        "number": "\\N",
        "code": "FIS",
        "forename": "Giancarlo",
        "surname": "Fisichella",
        "dob": "1973-01-14",
        "url": "http://en.wikipedia.org/wiki/Giancarlo_Fisichella",
        "coordinates": {
            "latitude": 41.902783,
            "longitude": 12.496366
        }
    },
    {
        "driverId": 22,
        "driverRef": "barrichello",
        "number": "\\N",
        "code": "BAR",
        "forename": "Rubens",
        "surname": "Barrichello",
        "dob": "1972-05-23",
        "url": "http://en.wikipedia.org/wiki/Rubens_Barrichello",
        "coordinates": {
            "latitude": -14.235004,
            "longitude": -51.92528
        }
    },
    {
        "driverId": 23,
        "driverRef": "ralf_schumacher",
        "number": "\\N",
        "code": "SCH",
        "forename": "Ralf",
        "surname": "Schumacher",
        "dob": "1975-06-30",
        "url": "http://en.wikipedia.org/wiki/Ralf_Schumacher",
        "coordinates": {
            "latitude": 51.165691,
            "longitude": 10.451526
        }
    },
    {
        "driverId": 24,
        "driverRef": "liuzzi",
        "number": "\\N",
        "code": "LIU",
        "forename": "Vitantonio",
        "surname": "Liuzzi",
        "dob": "1980-08-06",
        "url": "http://en.wikipedia.org/wiki/Vitantonio_Liuzzi",
        "coordinates": {
            "latitude": 41.902783,
            "longitude": 12.496366
        }
    },
    {
        "driverId": 25,
        "driverRef": "wurz",
        "number": "\\N",
        "code": "WUR",
        "forename": "Alexander",
        "surname": "Wurz",
        "dob": "1974-02-15",
        "url": "http://en.wikipedia.org/wiki/Alexander_Wurz",
        "coordinates": {
            "latitude": 47.516231,
            "longitude": 14.550072
        }
    },
    {
        "driverId": 26,
        "driverRef": "speed",
        "number": "\\N",
        "code": "SPE",
        "forename": "Scott",
        "surname": "Speed",
        "dob": "1983-01-24",
        "url": "http://en.wikipedia.org/wiki/Scott_Speed",
        "coordinates": {
            "latitude": 37.09024,
            "longitude": -95.712891
        }
    },
    {
        "driverId": 27,
        "driverRef": "albers",
        "number": "\\N",
        "code": "ALB",
        "forename": "Christijan",
        "surname": "Albers",
        "dob": "1979-04-16",
        "url": "http://en.wikipedia.org/wiki/Christijan_Albers",
        "coordinates": {
            "latitude": 52.3676,
            "longitude": 4.9041
        }
    },
    {
        "driverId": 28,
        "driverRef": "markus_winkelhock",
        "number": "\\N",
        "code": "WIN",
        "forename": "Markus",
        "surname": "Winkelhock",
        "dob": "1980-06-13",
        "url": "http://en.wikipedia.org/wiki/Markus_Winkelhock",
        "coordinates": {
            "latitude": 51.165691,
            "longitude": 10.451526
        }
    },
    {
        "driverId": 29,
        "driverRef": "yamamoto",
        "number": "\\N",
        "code": "YAM",
        "forename": "Sakon",
        "surname": "Yamamoto",
        "dob": "1982-07-09",
        "url": "http://en.wikipedia.org/wiki/Sakon_Yamamoto",
        "coordinates": {
            "latitude": 35.689487,
            "longitude": 139.691711
        }
    },
    {
        "driverId": 30,
        "driverRef": "michael_schumacher",
        "number": "\\N",
        "code": "MSC",
        "forename": "Michael",
        "surname": "Schumacher",
        "dob": "1969-01-03",
        "url": "http://en.wikipedia.org/wiki/Michael_Schumacher",
        "coordinates": {
            "latitude": 51.165691,
            "longitude": 10.451526
        }
    },
    {
        "driverId": 31,
        "driverRef": "montoya",
        "number": "\\N",
        "code": "MON",
        "forename": "Juan",
        "surname": "Pablo Montoya",
        "dob": "1975-09-20",
        "url": "http://en.wikipedia.org/wiki/Juan_Pablo_Montoya",
        "coordinates": {
            "latitude": 4.570868,
            "longitude": -74.297333
        }
    },
    {
        "driverId": 32,
        "driverRef": "klien",
        "number": "\\N",
        "code": "KLI",
        "forename": "Christian",
        "surname": "Klien",
        "dob": "1983-02-07",
        "url": "http://en.wikipedia.org/wiki/Christian_Klien",
        "coordinates": {
            "latitude": 47.516231,
            "longitude": 14.550072
        }
    },
    {
        "driverId": 33,
        "driverRef": "monteiro",
        "number": "\\N",
        "code": "TMO",
        "forename": "Tiago",
        "surname": "Monteiro",
        "dob": "1976-07-24",
        "url": "http://en.wikipedia.org/wiki/Tiago_Monteiro",
        "coordinates": {
            "latitude": 39.399872,
            "longitude": -8.224454
        }
    },
    {
        "driverId": 34,
        "driverRef": "ide",
        "number": "\\N",
        "code": "IDE",
        "forename": "Yuji",
        "surname": "Ide",
        "dob": "1975-01-21",
        "url": "http://en.wikipedia.org/wiki/Yuji_Ide",
        "coordinates": {
            "latitude": 35.689487,
            "longitude": 139.691711
        }
    },
    {
        "driverId": 35,
        "driverRef": "villeneuve",
        "number": "\\N",
        "code": "VIL",
        "forename": "Jacques",
        "surname": "Villeneuve",
        "dob": "1971-04-09",
        "url": "http://en.wikipedia.org/wiki/Jacques_Villeneuve",
        "coordinates": {
            "latitude": 56.130366,
            "longitude": -106.346771
        }
    },
    {
        "driverId": 36,
        "driverRef": "montagny",
        "number": "\\N",
        "code": "FMO",
        "forename": "Franck",
        "surname": "Montagny",
        "dob": "1978-01-05",
        "url": "http://en.wikipedia.org/wiki/Franck_Montagny",
        "coordinates": {
            "latitude": 48.856613,
            "longitude": 2.352222
        }
    },
    {
        "driverId": 37,
        "driverRef": "rosa",
        "number": "\\N",
        "code": "DLR",
        "forename": "Pedro",
        "surname": "de la Rosa",
        "dob": "1971-02-24",
        "url": "http://en.wikipedia.org/wiki/Pedro_de_la_Rosa",
        "coordinates": {
            "latitude": 40.416775,
            "longitude": -3.70379
        }
    },
    {
        "driverId": 38,
        "driverRef": "doornbos",
        "number": "\\N",
        "code": "DOO",
        "forename": "Robert",
        "surname": "Doornbos",
        "dob": "1981-09-23",
        "url": "http://en.wikipedia.org/wiki/Robert_Doornbos",
        "coordinates": {
            "latitude": 52.3676,
            "longitude": 4.9041
        }
    },
    {
        "driverId": 39,
        "driverRef": "karthikeyan",
        "number": "\\N",
        "code": "KAR",
        "forename": "Narain",
        "surname": "Karthikeyan",
        "dob": "1977-01-14",
        "url": "http://en.wikipedia.org/wiki/Narain_Karthikeyan",
        "coordinates": {
            "latitude": 20.593684,
            "longitude": 78.96288
        }
    },
    {
        "driverId": 40,
        "driverRef": "friesacher",
        "number": "\\N",
        "code": "FRI",
        "forename": "Patrick",
        "surname": "Friesacher",
        "dob": "1980-09-26",
        "url": "http://en.wikipedia.org/wiki/Patrick_Friesacher",
        "coordinates": {
            "latitude": 47.516231,
            "longitude": 14.550072
        }
    },
    {
        "driverId": 41,
        "driverRef": "zonta",
        "number": "\\N",
        "code": "ZON",
        "forename": "Ricardo",
        "surname": "Zonta",
        "dob": "1976-03-23",
        "url": "http://en.wikipedia.org/wiki/Ricardo_Zonta",
        "coordinates": {
            "latitude": -14.235004,
            "longitude": -51.92528
        }
    },
    {
        "driverId": 42,
        "driverRef": "pizzonia",
        "number": "\\N",
        "code": "PIZ",
        "forename": "Ant\u00f4nio",
        "surname": "Pizzonia",
        "dob": "1980-09-11",
        "url": "http://en.wikipedia.org/wiki/Ant%C3%B4nio_Pizzonia",
        "coordinates": {
            "latitude": -14.235004,
            "longitude": -51.92528
        }
    },
    {
        "driverId": 43,
        "driverRef": "matta",
        "number": "\\N",
        "code": "\\N",
        "forename": "Cristiano",
        "surname": "da Matta",
        "dob": "1973-09-19",
        "url": "http://en.wikipedia.org/wiki/Cristiano_da_Matta",
        "coordinates": {
            "latitude": -14.235004,
            "longitude": -51.92528
        }
    },
    {
        "driverId": 44,
        "driverRef": "panis",
        "number": "\\N",
        "code": "\\N",
        "forename": "Olivier",
        "surname": "Panis",
        "dob": "1966-09-02",
        "url": "http://en.wikipedia.org/wiki/Olivier_Panis",
        "coordinates": {
            "latitude": 48.856613,
            "longitude": 2.352222
        }
    },
    {
        "driverId": 45,
        "driverRef": "pantano",
        "number": "\\N",
        "code": "\\N",
        "forename": "Giorgio",
        "surname": "Pantano",
        "dob": "1979-02-04",
        "url": "http://en.wikipedia.org/wiki/Giorgio_Pantano",
        "coordinates": {
            "latitude": 41.902783,
            "longitude": 12.496366
        }
    },
    {
        "driverId": 46,
        "driverRef": "bruni",
        "number": "\\N",
        "code": "\\N",
        "forename": "Gianmaria",
        "surname": "Bruni",
        "dob": "1981-05-30",
        "url": "http://en.wikipedia.org/wiki/Gianmaria_Bruni",
        "coordinates": {
            "latitude": 41.902783,
            "longitude": 12.496366
        }
    },
    {
        "driverId": 47,
        "driverRef": "baumgartner",
        "number": "\\N",
        "code": "\\N",
        "forename": "Zsolt",
        "surname": "Baumgartner",
        "dob": "1981-01-01",
        "url": "http://en.wikipedia.org/wiki/Zsolt_Baumgartner",
        "coordinates": {
            "latitude": 47.162494,
            "longitude": 19.503304
        }
    },
    {
        "driverId": 48,
        "driverRef": "gene",
        "number": "\\N",
        "code": "\\N",
        "forename": "Marc",
        "surname": "Gen\u00e9",
        "dob": "1974-03-29",
        "url": "http://en.wikipedia.org/wiki/Marc_Gen%C3%A9",
        "coordinates": {
            "latitude": 40.416775,
            "longitude": -3.70379
        }
    },
    {
        "driverId": 49,
        "driverRef": "frentzen",
        "number": "\\N",
        "code": "\\N",
        "forename": "Heinz-Harald",
        "surname": "Frentzen",
        "dob": "1967-05-18",
        "url": "http://en.wikipedia.org/wiki/Heinz-Harald_Frentzen",
        "coordinates": {
            "latitude": 51.165691,
            "longitude": 10.451526
        }
    },
    {
        "driverId": 50,
        "driverRef": "verstappen",
        "number": "\\N",
        "code": "\\N",
        "forename": "Jos",
        "surname": "Verstappen",
        "dob": "1972-03-04",
        "url": "http://en.wikipedia.org/wiki/Jos_Verstappen",
        "coordinates": {
            "latitude": 52.3676,
            "longitude": 4.9041
        }
    },
    {
        "driverId": 51,
        "driverRef": "wilson",
        "number": "\\N",
        "code": "\\N",
        "forename": "Justin",
        "surname": "Wilson",
        "dob": "1978-07-31",
        "url": "http://en.wikipedia.org/wiki/Justin_Wilson_(racing_driver)",
        "coordinates": {
            "latitude": 51.509865,
            "longitude": -0.118092
        }
    },
    {
        "driverId": 52,
        "driverRef": "firman",
        "number": "\\N",
        "code": "\\N",
        "forename": "Ralph",
        "surname": "Firman",
        "dob": "1975-05-20",
        "url": "http://en.wikipedia.org/wiki/Ralph_Firman",
        "coordinates": {
            "latitude": 53.349805,
            "longitude": -6.26031
        }
    },
    {
        "driverId": 53,
        "driverRef": "kiesa",
        "number": "\\N",
        "code": "\\N",
        "forename": "Nicolas",
        "surname": "Kiesa",
        "dob": "1978-03-03",
        "url": "http://en.wikipedia.org/wiki/Nicolas_Kiesa",
        "coordinates": {
            "latitude": 55.676098,
            "longitude": 12.568337
        }
    },
    {
        "driverId": 54,
        "driverRef": "burti",
        "number": "\\N",
        "code": "\\N",
        "forename": "Luciano",
        "surname": "Burti",
        "dob": "1975-03-05",
        "url": "http://en.wikipedia.org/wiki/Luciano_Burti",
        "coordinates": {
            "latitude": -14.235004,
            "longitude": -51.92528
        }
    },
    {
        "driverId": 55,
        "driverRef": "alesi",
        "number": "\\N",
        "code": "\\N",
        "forename": "Jean",
        "surname": "Alesi",
        "dob": "1964-06-11",
        "url": "http://en.wikipedia.org/wiki/Jean_Alesi",
        "coordinates": {
            "latitude": 48.856613,
            "longitude": 2.352222
        }
    },
    {
        "driverId": 56,
        "driverRef": "irvine",
        "number": "\\N",
        "code": "\\N",
        "forename": "Eddie",
        "surname": "Irvine",
        "dob": "1965-11-10",
        "url": "http://en.wikipedia.org/wiki/Eddie_Irvine",
        "coordinates": {
            "latitude": 51.509865,
            "longitude": -0.118092
        }
    },
    {
        "driverId": 57,
        "driverRef": "hakkinen",
        "number": "\\N",
        "code": "\\N",
        "forename": "Mika",
        "surname": "H\u00e4kkinen",
        "dob": "1968-09-28",
        "url": "http://en.wikipedia.org/wiki/Mika_H%C3%A4kkinen",
        "coordinates": {
            "latitude": 60.169856,
            "longitude": 24.938379
        }
    },
    {
        "driverId": 58,
        "driverRef": "marques",
        "number": "\\N",
        "code": "\\N",
        "forename": "Tarso",
        "surname": "Marques",
        "dob": "1976-01-19",
        "url": "http://en.wikipedia.org/wiki/Tarso_Marques",
        "coordinates": {
            "latitude": -14.235004,
            "longitude": -51.92528
        }
    },
    {
        "driverId": 59,
        "driverRef": "bernoldi",
        "number": "\\N",
        "code": "\\N",
        "forename": "Enrique",
        "surname": "Bernoldi",
        "dob": "1978-10-19",
        "url": "http://en.wikipedia.org/wiki/Enrique_Bernoldi",
        "coordinates": {
            "latitude": -14.235004,
            "longitude": -51.92528
        }
    },
    {
        "driverId": 60,
        "driverRef": "mazzacane",
        "number": "\\N",
        "code": "\\N",
        "forename": "Gast\u00f3n",
        "surname": "Mazzacane",
        "dob": "1975-05-08",
        "url": "http://en.wikipedia.org/wiki/Gast%C3%B3n_Mazzacane",
        "coordinates": {
            "latitude": -38.416097,
            "longitude": -63.616672
        }
    },
    {
        "driverId": 61,
        "driverRef": "enge",
        "number": "\\N",
        "code": "\\N",
        "forename": "Tom\u00e1\u0161",
        "surname": "Enge",
        "dob": "1976-09-11",
        "url": "http://en.wikipedia.org/wiki/Tom%C3%A1%C5%A1_Enge",
        "coordinates": {
            "latitude": 49.817492,
            "longitude": 15.472962
        }
    },
    {
        "driverId": 62,
        "driverRef": "yoong",
        "number": "\\N",
        "code": "\\N",
        "forename": "Alex",
        "surname": "Yoong",
        "dob": "1976-07-20",
        "url": "http://en.wikipedia.org/wiki/Alex_Yoong",
        "coordinates": {
            "latitude": 4.210484,
            "longitude": 101.975766
        }
    },
    {
        "driverId": 63,
        "driverRef": "salo",
        "number": "\\N",
        "code": "\\N",
        "forename": "Mika",
        "surname": "Salo",
        "dob": "1966-11-30",
        "url": "http://en.wikipedia.org/wiki/Mika_Salo",
        "coordinates": {
            "latitude": 60.169856,
            "longitude": 24.938379
        }
    },
    {
        "driverId": 64,
        "driverRef": "diniz",
        "number": "\\N",
        "code": "\\N",
        "forename": "Pedro",
        "surname": "Diniz",
        "dob": "1970-05-22",
        "url": "http://en.wikipedia.org/wiki/Pedro_Diniz",
        "coordinates": {
            "latitude": -14.235004,
            "longitude": -51.92528
        }
    },
    {
        "driverId": 65,
        "driverRef": "herbert",
        "number": "\\N",
        "code": "\\N",
        "forename": "Johnny",
        "surname": "Herbert",
        "dob": "1964-06-25",
        "url": "http://en.wikipedia.org/wiki/Johnny_Herbert",
        "coordinates": {
            "latitude": 51.509865,
            "longitude": -0.118092
        }
    },
    {
        "driverId": 66,
        "driverRef": "mcnish",
        "number": "\\N",
        "code": "\\N",
        "forename": "Allan",
        "surname": "McNish",
        "dob": "1969-12-29",
        "url": "http://en.wikipedia.org/wiki/Allan_McNish",
        "coordinates": {
            "latitude": 51.509865,
            "longitude": -0.118092
        }
    },
    {
        "driverId": 67,
        "driverRef": "buemi",
        "number": "\\N",
        "code": "BUE",
        "forename": "S\u00e9bastien",
        "surname": "Buemi",
        "dob": "1988-10-31",
        "url": "http://en.wikipedia.org/wiki/S%C3%A9bastien_Buemi",
        "coordinates": {
            "latitude": 46.818188,
            "longitude": 8.227512
        }
    },
    {
        "driverId": 68,
        "driverRef": "takagi",
        "number": "\\N",
        "code": "\\N",
        "forename": "Toranosuke",
        "surname": "Takagi",
        "dob": "1974-02-12",
        "url": "http://en.wikipedia.org/wiki/Toranosuke_Takagi",
        "coordinates": {
            "latitude": 35.689487,
            "longitude": 139.691711
        }
    },
    {
        "driverId": 69,
        "driverRef": "badoer",
        "number": "\\N",
        "code": "BAD",
        "forename": "Luca",
        "surname": "Badoer",
        "dob": "1971-01-25",
        "url": "http://en.wikipedia.org/wiki/Luca_Badoer",
        "coordinates": {
            "latitude": 41.902783,
            "longitude": 12.496366
        }
    },
    {
        "driverId": 70,
        "driverRef": "zanardi",
        "number": "\\N",
        "code": "\\N",
        "forename": "Alessandro",
        "surname": "Zanardi",
        "dob": "1966-10-23",
        "url": "http://en.wikipedia.org/wiki/Alex_Zanardi",
        "coordinates": {
            "latitude": 41.902783,
            "longitude": 12.496366
        }
    },
    {
        "driverId": 71,
        "driverRef": "damon_hill",
        "number": "\\N",
        "code": "\\N",
        "forename": "Damon",
        "surname": "Hill",
        "dob": "1960-09-17",
        "url": "http://en.wikipedia.org/wiki/Damon_Hill",
        "coordinates": {
            "latitude": 51.509865,
            "longitude": -0.118092
        }
    },
    {
        "driverId": 72,
        "driverRef": "sarrazin",
        "number": "\\N",
        "code": "\\N",
        "forename": "St\u00e9phane",
        "surname": "Sarrazin",
        "dob": "1975-11-02",
        "url": "http://en.wikipedia.org/wiki/St%C3%A9phane_Sarrazin",
        "coordinates": {
            "latitude": 48.856613,
            "longitude": 2.352222
        }
    },
    {
        "driverId": 73,
        "driverRef": "rosset",
        "number": "\\N",
        "code": "\\N",
        "forename": "Ricardo",
        "surname": "Rosset",
        "dob": "1968-07-27",
        "url": "http://en.wikipedia.org/wiki/Ricardo_Rosset",
        "coordinates": {
            "latitude": -14.235004,
            "longitude": -51.92528
        }
    },
    {
        "driverId": 74,
        "driverRef": "tuero",
        "number": "\\N",
        "code": "\\N",
        "forename": "Esteban",
        "surname": "Tuero",
        "dob": "1978-04-22",
        "url": "http://en.wikipedia.org/wiki/Esteban_Tuero",
        "coordinates": {
            "latitude": -38.416097,
            "longitude": -63.616672
        }
    },
    {
        "driverId": 75,
        "driverRef": "nakano",
        "number": "\\N",
        "code": "\\N",
        "forename": "Shinji",
        "surname": "Nakano",
        "dob": "1971-04-01",
        "url": "http://en.wikipedia.org/wiki/Shinji_Nakano",
        "coordinates": {
            "latitude": 35.689487,
            "longitude": 139.691711
        }
    },
    {
        "driverId": 76,
        "driverRef": "magnussen",
        "number": "\\N",
        "code": "MAG",
        "forename": "Jan",
        "surname": "Magnussen",
        "dob": "1973-07-04",
        "url": "http://en.wikipedia.org/wiki/Jan_Magnussen",
        "coordinates": {
            "latitude": 55.676098,
            "longitude": 12.568337
        }
    },
    {
        "driverId": 77,
        "driverRef": "berger",
        "number": "\\N",
        "code": "\\N",
        "forename": "Gerhard",
        "surname": "Berger",
        "dob": "1959-08-27",
        "url": "http://en.wikipedia.org/wiki/Gerhard_Berger",
        "coordinates": {
            "latitude": 47.516231,
            "longitude": 14.550072
        }
    },
    {
        "driverId": 78,
        "driverRef": "larini",
        "number": "\\N",
        "code": "\\N",
        "forename": "Nicola",
        "surname": "Larini",
        "dob": "1964-03-19",
        "url": "http://en.wikipedia.org/wiki/Nicola_Larini",
        "coordinates": {
            "latitude": 41.902783,
            "longitude": 12.496366
        }
    },
    {
        "driverId": 79,
        "driverRef": "katayama",
        "number": "\\N",
        "code": "\\N",
        "forename": "Ukyo",
        "surname": "Katayama",
        "dob": "1963-05-29",
        "url": "http://en.wikipedia.org/wiki/Ukyo_Katayama",
        "coordinates": {
            "latitude": 35.689487,
            "longitude": 139.691711
        }
    },
    {
        "driverId": 80,
        "driverRef": "sospiri",
        "number": "\\N",
        "code": "\\N",
        "forename": "Vincenzo",
        "surname": "Sospiri",
        "dob": "1966-10-07",
        "url": "http://en.wikipedia.org/wiki/Vincenzo_Sospiri",
        "coordinates": {
            "latitude": 41.902783,
            "longitude": 12.496366
        }
    },
    {
        "driverId": 81,
        "driverRef": "morbidelli",
        "number": "\\N",
        "code": "\\N",
        "forename": "Gianni",
        "surname": "Morbidelli",
        "dob": "1968-01-13",
        "url": "http://en.wikipedia.org/wiki/Gianni_Morbidelli",
        "coordinates": {
            "latitude": 41.902783,
            "longitude": 12.496366
        }
    },
    {
        "driverId": 82,
        "driverRef": "fontana",
        "number": "\\N",
        "code": "\\N",
        "forename": "Norberto",
        "surname": "Fontana",
        "dob": "1975-01-20",
        "url": "http://en.wikipedia.org/wiki/Norberto_Fontana",
        "coordinates": {
            "latitude": -38.416097,
            "longitude": -63.616672
        }
    },
    {
        "driverId": 83,
        "driverRef": "lamy",
        "number": "\\N",
        "code": "\\N",
        "forename": "Pedro",
        "surname": "Lamy",
        "dob": "1972-03-20",
        "url": "http://en.wikipedia.org/wiki/Pedro_Lamy",
        "coordinates": {
            "latitude": 39.399872,
            "longitude": -8.224454
        }
    },
    {
        "driverId": 84,
        "driverRef": "brundle",
        "number": "\\N",
        "code": "\\N",
        "forename": "Martin",
        "surname": "Brundle",
        "dob": "1959-06-01",
        "url": "http://en.wikipedia.org/wiki/Martin_Brundle",
        "coordinates": {
            "latitude": 51.509865,
            "longitude": -0.118092
        }
    },
    {
        "driverId": 85,
        "driverRef": "montermini",
        "number": "\\N",
        "code": "\\N",
        "forename": "Andrea",
        "surname": "Montermini",
        "dob": "1964-05-30",
        "url": "http://en.wikipedia.org/wiki/Andrea_Montermini",
        "coordinates": {
            "latitude": 41.902783,
            "longitude": 12.496366
        }
    },
    {
        "driverId": 86,
        "driverRef": "lavaggi",
        "number": "\\N",
        "code": "\\N",
        "forename": "Giovanni",
        "surname": "Lavaggi",
        "dob": "1958-02-18",
        "url": "http://en.wikipedia.org/wiki/Giovanni_Lavaggi",
        "coordinates": {
            "latitude": 41.902783,
            "longitude": 12.496366
        }
    },
    {
        "driverId": 87,
        "driverRef": "blundell",
        "number": "\\N",
        "code": "\\N",
        "forename": "Mark",
        "surname": "Blundell",
        "dob": "1966-04-08",
        "url": "http://en.wikipedia.org/wiki/Mark_Blundell",
        "coordinates": {
            "latitude": 51.509865,
            "longitude": -0.118092
        }
    },
    {
        "driverId": 88,
        "driverRef": "suzuki",
        "number": "\\N",
        "code": "\\N",
        "forename": "Aguri",
        "surname": "Suzuki",
        "dob": "1960-09-08",
        "url": "http://en.wikipedia.org/wiki/Aguri_Suzuki",
        "coordinates": {
            "latitude": 35.689487,
            "longitude": 139.691711
        }
    },
    {
        "driverId": 89,
        "driverRef": "inoue",
        "number": "\\N",
        "code": "\\N",
        "forename": "Taki",
        "surname": "Inoue",
        "dob": "1963-09-05",
        "url": "http://en.wikipedia.org/wiki/Taki_Inoue",
        "coordinates": {
            "latitude": 35.689487,
            "longitude": 139.691711
        }
    },
    {
        "driverId": 90,
        "driverRef": "moreno",
        "number": "\\N",
        "code": "\\N",
        "forename": "Roberto",
        "surname": "Moreno",
        "dob": "1959-02-11",
        "url": "http://en.wikipedia.org/wiki/Roberto_Moreno",
        "coordinates": {
            "latitude": -14.235004,
            "longitude": -51.92528
        }
    },
    {
        "driverId": 91,
        "driverRef": "wendlinger",
        "number": "\\N",
        "code": "\\N",
        "forename": "Karl",
        "surname": "Wendlinger",
        "dob": "1968-12-20",
        "url": "http://en.wikipedia.org/wiki/Karl_Wendlinger",
        "coordinates": {
            "latitude": 47.516231,
            "longitude": 14.550072
        }
    },
    {
        "driverId": 92,
        "driverRef": "gachot",
        "number": "\\N",
        "code": "\\N",
        "forename": "Bertrand",
        "surname": "Gachot",
        "dob": "1962-12-23",
        "url": "http://en.wikipedia.org/wiki/Bertrand_Gachot",
        "coordinates": {
            "latitude": 50.503887,
            "longitude": 4.469936
        }
    },
    {
        "driverId": 93,
        "driverRef": "schiattarella",
        "number": "\\N",
        "code": "\\N",
        "forename": "Domenico",
        "surname": "Schiattarella",
        "dob": "1967-11-17",
        "url": "http://en.wikipedia.org/wiki/Domenico_Schiattarella",
        "coordinates": {
            "latitude": 41.902783,
            "longitude": 12.496366
        }
    },
    {
        "driverId": 94,
        "driverRef": "martini",
        "number": "\\N",
        "code": "\\N",
        "forename": "Pierluigi",
        "surname": "Martini",
        "dob": "1961-04-23",
        "url": "http://en.wikipedia.org/wiki/Pierluigi_Martini",
        "coordinates": {
            "latitude": 41.902783,
            "longitude": 12.496366
        }
    },
    {
        "driverId": 95,
        "driverRef": "mansell",
        "number": "\\N",
        "code": "\\N",
        "forename": "Nigel",
        "surname": "Mansell",
        "dob": "1953-08-08",
        "url": "http://en.wikipedia.org/wiki/Nigel_Mansell",
        "coordinates": {
            "latitude": 51.509865,
            "longitude": -0.118092
        }
    },
    {
        "driverId": 96,
        "driverRef": "boullion",
        "number": "\\N",
        "code": "\\N",
        "forename": "Jean-Christophe",
        "surname": "Boullion",
        "dob": "1969-12-27",
        "url": "http://en.wikipedia.org/wiki/Jean-Christophe_Boullion",
        "coordinates": {
            "latitude": 48.856613,
            "longitude": 2.352222
        }
    },
    {
        "driverId": 97,
        "driverRef": "papis",
        "number": "\\N",
        "code": "\\N",
        "forename": "Massimiliano",
        "surname": "Papis",
        "dob": "1969-10-03",
        "url": "http://en.wikipedia.org/wiki/Massimiliano_Papis",
        "coordinates": {
            "latitude": 41.902783,
            "longitude": 12.496366
        }
    },
    {
        "driverId": 98,
        "driverRef": "deletraz",
        "number": "\\N",
        "code": "\\N",
        "forename": "Jean-Denis",
        "surname": "D\u00e9l\u00e9traz",
        "dob": "1963-10-01",
        "url": "http://en.wikipedia.org/wiki/Jean-Denis_Deletraz",
        "coordinates": {
            "latitude": 46.818188,
            "longitude": 8.227512
        }
    },
    {
        "driverId": 99,
        "driverRef": "tarquini",
        "number": "\\N",
        "code": "\\N",
        "forename": "Gabriele",
        "surname": "Tarquini",
        "dob": "1962-03-02",
        "url": "http://en.wikipedia.org/wiki/Gabriele_Tarquini",
        "coordinates": {
            "latitude": 41.902783,
            "longitude": 12.496366
        }
    },
    {
        "driverId": 100,
        "driverRef": "comas",
        "number": "\\N",
        "code": "\\N",
        "forename": "\u00c9rik",
        "surname": "Comas",
        "dob": "1963-09-28",
        "url": "http://en.wikipedia.org/wiki/%C3%89rik_Comas",
        "coordinates": {
            "latitude": 48.856613,
            "longitude": 2.352222
        }
    },
    {
        "driverId": 101,
        "driverRef": "brabham",
        "number": "\\N",
        "code": "\\N",
        "forename": "David",
        "surname": "Brabham",
        "dob": "1965-09-05",
        "url": "http://en.wikipedia.org/wiki/David_Brabham",
        "coordinates": {
            "latitude": -25.274398,
            "longitude": 133.775136
        }
    },
    {
        "driverId": 102,
        "driverRef": "senna",
        "number": "\\N",
        "code": "\\N",
        "forename": "Ayrton",
        "surname": "Senna",
        "dob": "1960-03-21",
        "url": "http://en.wikipedia.org/wiki/Ayrton_Senna",
        "coordinates": {
            "latitude": -14.235004,
            "longitude": -51.92528
        }
    },
    {
        "driverId": 103,
        "driverRef": "bernard",
        "number": "\\N",
        "code": "\\N",
        "forename": "\u00c9ric",
        "surname": "Bernard",
        "dob": "1964-08-24",
        "url": "http://en.wikipedia.org/wiki/%C3%89ric_Bernard",
        "coordinates": {
            "latitude": 48.856613,
            "longitude": 2.352222
        }
    },
    {
        "driverId": 104,
        "driverRef": "fittipaldi",
        "number": "\\N",
        "code": "\\N",
        "forename": "Christian",
        "surname": "Fittipaldi",
        "dob": "1971-01-18",
        "url": "http://en.wikipedia.org/wiki/Christian_Fittipaldi",
        "coordinates": {
            "latitude": -14.235004,
            "longitude": -51.92528
        }
    },
    {
        "driverId": 105,
        "driverRef": "alboreto",
        "number": "\\N",
        "code": "\\N",
        "forename": "Michele",
        "surname": "Alboreto",
        "dob": "1956-12-23",
        "url": "http://en.wikipedia.org/wiki/Michele_Alboreto",
        "coordinates": {
            "latitude": 41.902783,
            "longitude": 12.496366
        }
    },
    {
        "driverId": 106,
        "driverRef": "beretta",
        "number": "\\N",
        "code": "\\N",
        "forename": "Olivier",
        "surname": "Beretta",
        "dob": "1969-11-23",
        "url": "http://en.wikipedia.org/wiki/Olivier_Beretta",
        "coordinates": {
            "latitude": 43.738418,
            "longitude": 7.424616
        }
    },
    {
        "driverId": 107,
        "driverRef": "ratzenberger",
        "number": "\\N",
        "code": "\\N",
        "forename": "Roland",
        "surname": "Ratzenberger",
        "dob": "1960-07-04",
        "url": "http://en.wikipedia.org/wiki/Roland_Ratzenberger",
        "coordinates": {
            "latitude": 47.516231,
            "longitude": 14.550072
        }
    },
    {
        "driverId": 108,
        "driverRef": "belmondo",
        "number": "\\N",
        "code": "\\N",
        "forename": "Paul",
        "surname": "Belmondo",
        "dob": "1963-04-23",
        "url": "http://en.wikipedia.org/wiki/Paul_Belmondo",
        "coordinates": {
            "latitude": 48.856613,
            "longitude": 2.352222
        }
    },
    {
        "driverId": 109,
        "driverRef": "lehto",
        "number": "\\N",
        "code": "\\N",
        "forename": "Jyrki",
        "surname": "J\u00e4rvilehto",
        "dob": "1966-01-31",
        "url": "http://en.wikipedia.org/wiki/Jyrki_J%C3%A4rvilehto",
        "coordinates": {
            "latitude": 60.169856,
            "longitude": 24.938379
        }
    },
    {
        "driverId": 110,
        "driverRef": "cesaris",
        "number": "\\N",
        "code": "\\N",
        "forename": "Andrea",
        "surname": "de Cesaris",
        "dob": "1959-05-31",
        "url": "http://en.wikipedia.org/wiki/Andrea_de_Cesaris",
        "coordinates": {
            "latitude": 41.902783,
            "longitude": 12.496366
        }
    },
    {
        "driverId": 111,
        "driverRef": "gounon",
        "number": "\\N",
        "code": "\\N",
        "forename": "Jean-Marc",
        "surname": "Gounon",
        "dob": "1963-01-01",
        "url": "http://en.wikipedia.org/wiki/Jean-Marc_Gounon",
        "coordinates": {
            "latitude": 48.856613,
            "longitude": 2.352222
        }
    },
    {
        "driverId": 112,
        "driverRef": "alliot",
        "number": "\\N",
        "code": "\\N",
        "forename": "Philippe",
        "surname": "Alliot",
        "dob": "1954-07-27",
        "url": "http://en.wikipedia.org/wiki/Philippe_Alliot",
        "coordinates": {
            "latitude": 48.856613,
            "longitude": 2.352222
        }
    },
    {
        "driverId": 113,
        "driverRef": "adams",
        "number": "\\N",
        "code": "\\N",
        "forename": "Philippe",
        "surname": "Adams",
        "dob": "1969-11-19",
        "url": "http://en.wikipedia.org/wiki/Philippe_Adams",
        "coordinates": {
            "latitude": 50.503887,
            "longitude": 4.469936
        }
    },
    {
        "driverId": 114,
        "driverRef": "dalmas",
        "number": "\\N",
        "code": "\\N",
        "forename": "Yannick",
        "surname": "Dalmas",
        "dob": "1961-07-28",
        "url": "http://en.wikipedia.org/wiki/Yannick_Dalmas",
        "coordinates": {
            "latitude": 48.856613,
            "longitude": 2.352222
        }
    },
    {
        "driverId": 115,
        "driverRef": "noda",
        "number": "\\N",
        "code": "\\N",
        "forename": "Hideki",
        "surname": "Noda",
        "dob": "1969-03-07",
        "url": "http://en.wikipedia.org/wiki/Hideki_Noda",
        "coordinates": {
            "latitude": 35.689487,
            "longitude": 139.691711
        }
    },
    {
        "driverId": 116,
        "driverRef": "lagorce",
        "number": "\\N",
        "code": "\\N",
        "forename": "Franck",
        "surname": "Lagorce",
        "dob": "1968-09-01",
        "url": "http://en.wikipedia.org/wiki/Franck_Lagorce",
        "coordinates": {
            "latitude": 48.856613,
            "longitude": 2.352222
        }
    },
    {
        "driverId": 117,
        "driverRef": "prost",
        "number": "\\N",
        "code": "\\N",
        "forename": "Alain",
        "surname": "Prost",
        "dob": "1955-02-24",
        "url": "http://en.wikipedia.org/wiki/Alain_Prost",
        "coordinates": {
            "latitude": 48.856613,
            "longitude": 2.352222
        }
    },
    {
        "driverId": 118,
        "driverRef": "warwick",
        "number": "\\N",
        "code": "\\N",
        "forename": "Derek",
        "surname": "Warwick",
        "dob": "1954-08-27",
        "url": "http://en.wikipedia.org/wiki/Derek_Warwick",
        "coordinates": {
            "latitude": 51.509865,
            "longitude": -0.118092
        }
    },
    {
        "driverId": 119,
        "driverRef": "patrese",
        "number": "\\N",
        "code": "\\N",
        "forename": "Riccardo",
        "surname": "Patrese",
        "dob": "1954-04-17",
        "url": "http://en.wikipedia.org/wiki/Riccardo_Patrese",
        "coordinates": {
            "latitude": 41.902783,
            "longitude": 12.496366
        }
    },
    {
        "driverId": 120,
        "driverRef": "barbazza",
        "number": "\\N",
        "code": "\\N",
        "forename": "Fabrizio",
        "surname": "Barbazza",
        "dob": "1963-04-02",
        "url": "http://en.wikipedia.org/wiki/Fabrizio_Barbazza",
        "coordinates": {
            "latitude": 41.902783,
            "longitude": 12.496366
        }
    },
    {
        "driverId": 121,
        "driverRef": "andretti",
        "number": "\\N",
        "code": "\\N",
        "forename": "Michael",
        "surname": "Andretti",
        "dob": "1962-10-05",
        "url": "http://en.wikipedia.org/wiki/Michael_Andretti",
        "coordinates": {
            "latitude": 37.09024,
            "longitude": -95.712891
        }
    },
    {
        "driverId": 122,
        "driverRef": "capelli",
        "number": "\\N",
        "code": "\\N",
        "forename": "Ivan",
        "surname": "Capelli",
        "dob": "1963-05-24",
        "url": "http://en.wikipedia.org/wiki/Ivan_Capelli",
        "coordinates": {
            "latitude": 41.902783,
            "longitude": 12.496366
        }
    },
    {
        "driverId": 123,
        "driverRef": "boutsen",
        "number": "\\N",
        "code": "\\N",
        "forename": "Thierry",
        "surname": "Boutsen",
        "dob": "1957-07-13",
        "url": "http://en.wikipedia.org/wiki/Thierry_Boutsen",
        "coordinates": {
            "latitude": 50.503887,
            "longitude": 4.469936
        }
    },
    {
        "driverId": 124,
        "driverRef": "apicella",
        "number": "\\N",
        "code": "\\N",
        "forename": "Marco",
        "surname": "Apicella",
        "dob": "1965-10-07",
        "url": "http://en.wikipedia.org/wiki/Marco_Apicella",
        "coordinates": {
            "latitude": 41.902783,
            "longitude": 12.496366
        }
    },
    {
        "driverId": 125,
        "driverRef": "naspetti",
        "number": "\\N",
        "code": "\\N",
        "forename": "Emanuele",
        "surname": "Naspetti",
        "dob": "1968-02-24",
        "url": "http://en.wikipedia.org/wiki/Emanuele_Naspetti",
        "coordinates": {
            "latitude": 41.902783,
            "longitude": 12.496366
        }
    },
    {
        "driverId": 126,
        "driverRef": "toshio_suzuki",
        "number": "\\N",
        "code": "\\N",
        "forename": "Toshio",
        "surname": "Suzuki",
        "dob": "1955-03-10",
        "url": "http://en.wikipedia.org/wiki/Toshio_Suzuki_(driver)",
        "coordinates": {
            "latitude": 35.689487,
            "longitude": 139.691711
        }
    },
    {
        "driverId": 127,
        "driverRef": "gugelmin",
        "number": "\\N",
        "code": "\\N",
        "forename": "Maur\u00edcio",
        "surname": "Gugelmin",
        "dob": "1963-04-20",
        "url": "http://en.wikipedia.org/wiki/Maur%C3%ADcio_Gugelmin",
        "coordinates": {
            "latitude": -14.235004,
            "longitude": -51.92528
        }
    },
    {
        "driverId": 128,
        "driverRef": "poele",
        "number": "\\N",
        "code": "\\N",
        "forename": "Eric",
        "surname": "van de Poele",
        "dob": "1961-09-30",
        "url": "http://en.wikipedia.org/wiki/Eric_van_de_Poele",
        "coordinates": {
            "latitude": 50.503887,
            "longitude": 4.469936
        }
    },
    {
        "driverId": 129,
        "driverRef": "grouillard",
        "number": "\\N",
        "code": "\\N",
        "forename": "Olivier",
        "surname": "Grouillard",
        "dob": "1958-09-02",
        "url": "http://en.wikipedia.org/wiki/Olivier_Grouillard",
        "coordinates": {
            "latitude": 48.856613,
            "longitude": 2.352222
        }
    },
    {
        "driverId": 130,
        "driverRef": "chiesa",
        "number": "\\N",
        "code": "\\N",
        "forename": "Andrea",
        "surname": "Chiesa",
        "dob": "1964-05-06",
        "url": "http://en.wikipedia.org/wiki/Andrea_Chiesa",
        "coordinates": {
            "latitude": 46.818188,
            "longitude": 8.227512
        }
    },
    {
        "driverId": 131,
        "driverRef": "modena",
        "number": "\\N",
        "code": "\\N",
        "forename": "Stefano",
        "surname": "Modena",
        "dob": "1963-05-12",
        "url": "http://en.wikipedia.org/wiki/Stefano_Modena",
        "coordinates": {
            "latitude": 41.902783,
            "longitude": 12.496366
        }
    },
    {
        "driverId": 132,
        "driverRef": "amati",
        "number": "\\N",
        "code": "\\N",
        "forename": "Giovanna",
        "surname": "Amati",
        "dob": "1959-07-20",
        "url": "http://en.wikipedia.org/wiki/Giovanna_Amati",
        "coordinates": {
            "latitude": 41.902783,
            "longitude": 12.496366
        }
    },
    {
        "driverId": 133,
        "driverRef": "caffi",
        "number": "\\N",
        "code": "\\N",
        "forename": "Alex",
        "surname": "Caffi",
        "dob": "1964-03-18",
        "url": "http://en.wikipedia.org/wiki/Alex_Caffi",
        "coordinates": {
            "latitude": 41.902783,
            "longitude": 12.496366
        }
    },
    {
        "driverId": 134,
        "driverRef": "bertaggia",
        "number": "\\N",
        "code": "\\N",
        "forename": "Enrico",
        "surname": "Bertaggia",
        "dob": "1964-09-19",
        "url": "http://en.wikipedia.org/wiki/Enrico_Bertaggia",
        "coordinates": {
            "latitude": 41.902783,
            "longitude": 12.496366
        }
    },
    {
        "driverId": 135,
        "driverRef": "mccarthy",
        "number": "\\N",
        "code": "\\N",
        "forename": "Perry",
        "surname": "McCarthy",
        "dob": "1961-03-03",
        "url": "http://en.wikipedia.org/wiki/Perry_McCarthy",
        "coordinates": {
            "latitude": 51.509865,
            "longitude": -0.118092
        }
    },
    {
        "driverId": 136,
        "driverRef": "lammers",
        "number": "\\N",
        "code": "\\N",
        "forename": "Jan",
        "surname": "Lammers",
        "dob": "1956-06-02",
        "url": "http://en.wikipedia.org/wiki/Jan_Lammers",
        "coordinates": {
            "latitude": 52.3676,
            "longitude": 4.9041
        }
    },
    {
        "driverId": 137,
        "driverRef": "piquet",
        "number": "\\N",
        "code": "\\N",
        "forename": "Nelson",
        "surname": "Piquet",
        "dob": "1952-08-17",
        "url": "http://en.wikipedia.org/wiki/Nelson_Piquet",
        "coordinates": {
            "latitude": -14.235004,
            "longitude": -51.92528
        }
    },
    {
        "driverId": 138,
        "driverRef": "satoru_nakajima",
        "number": "\\N",
        "code": "\\N",
        "forename": "Satoru",
        "surname": "Nakajima",
        "dob": "1953-02-23",
        "url": "http://en.wikipedia.org/wiki/Satoru_Nakajima",
        "coordinates": {
            "latitude": 35.689487,
            "longitude": 139.691711
        }
    },
    {
        "driverId": 139,
        "driverRef": "pirro",
        "number": "\\N",
        "code": "\\N",
        "forename": "Emanuele",
        "surname": "Pirro",
        "dob": "1962-01-12",
        "url": "http://en.wikipedia.org/wiki/Emanuele_Pirro",
        "coordinates": {
            "latitude": 41.902783,
            "longitude": 12.496366
        }
    },
    {
        "driverId": 140,
        "driverRef": "johansson",
        "number": "\\N",
        "code": "\\N",
        "forename": "Stefan",
        "surname": "Johansson",
        "dob": "1956-09-08",
        "url": "http://en.wikipedia.org/wiki/Stefan_Johansson",
        "coordinates": {
            "latitude": 60.128161,
            "longitude": 18.643501
        }
    },
    {
        "driverId": 141,
        "driverRef": "bailey",
        "number": "\\N",
        "code": "\\N",
        "forename": "Julian",
        "surname": "Bailey",
        "dob": "1961-10-09",
        "url": "http://en.wikipedia.org/wiki/Julian_Bailey",
        "coordinates": {
            "latitude": 51.509865,
            "longitude": -0.118092
        }
    },
    {
        "driverId": 142,
        "driverRef": "chaves",
        "number": "\\N",
        "code": "\\N",
        "forename": "Pedro",
        "surname": "Chaves",
        "dob": "1965-02-27",
        "url": "http://en.wikipedia.org/wiki/Pedro_Chaves",
        "coordinates": {
            "latitude": 39.399872,
            "longitude": -8.224454
        }
    },
    {
        "driverId": 143,
        "driverRef": "bartels",
        "number": "\\N",
        "code": "\\N",
        "forename": "Michael",
        "surname": "Bartels",
        "dob": "1968-03-08",
        "url": "http://en.wikipedia.org/wiki/Michael_Bartels",
        "coordinates": {
            "latitude": 51.165691,
            "longitude": 10.451526
        }
    },
    {
        "driverId": 144,
        "driverRef": "hattori",
        "number": "\\N",
        "code": "\\N",
        "forename": "Naoki",
        "surname": "Hattori",
        "dob": "1966-06-13",
        "url": "http://en.wikipedia.org/wiki/Naoki_Hattori",
        "coordinates": {
            "latitude": 35.689487,
            "longitude": 139.691711
        }
    },
    {
        "driverId": 145,
        "driverRef": "nannini",
        "number": "\\N",
        "code": "\\N",
        "forename": "Alessandro",
        "surname": "Nannini",
        "dob": "1959-07-07",
        "url": "http://en.wikipedia.org/wiki/Alessandro_Nannini",
        "coordinates": {
            "latitude": 41.902783,
            "longitude": 12.496366
        }
    },
    {
        "driverId": 146,
        "driverRef": "schneider",
        "number": "\\N",
        "code": "\\N",
        "forename": "Bernd",
        "surname": "Schneider",
        "dob": "1964-07-20",
        "url": "http://en.wikipedia.org/wiki/Bernd_Schneider_(racecar_driver)",
        "coordinates": {
            "latitude": 51.165691,
            "longitude": 10.451526
        }
    },
    {
        "driverId": 147,
        "driverRef": "barilla",
        "number": "\\N",
        "code": "\\N",
        "forename": "Paolo",
        "surname": "Barilla",
        "dob": "1961-04-20",
        "url": "http://en.wikipedia.org/wiki/Paolo_Barilla",
        "coordinates": {
            "latitude": 41.902783,
            "longitude": 12.496366
        }
    },
    {
        "driverId": 148,
        "driverRef": "foitek",
        "number": "\\N",
        "code": "\\N",
        "forename": "Gregor",
        "surname": "Foitek",
        "dob": "1965-03-27",
        "url": "http://en.wikipedia.org/wiki/Gregor_Foitek",
        "coordinates": {
            "latitude": 46.818188,
            "longitude": 8.227512
        }
    },
    {
        "driverId": 149,
        "driverRef": "langes",
        "number": "\\N",
        "code": "\\N",
        "forename": "Claudio",
        "surname": "Langes",
        "dob": "1960-07-20",
        "url": "http://en.wikipedia.org/wiki/Claudio_Langes",
        "coordinates": {
            "latitude": 41.902783,
            "longitude": 12.496366
        }
    },
    {
        "driverId": 150,
        "driverRef": "gary_brabham",
        "number": "\\N",
        "code": "\\N",
        "forename": "Gary",
        "surname": "Brabham",
        "dob": "1961-03-29",
        "url": "http://en.wikipedia.org/wiki/Gary_Brabham",
        "coordinates": {
            "latitude": -25.274398,
            "longitude": 133.775136
        }
    },
    {
        "driverId": 151,
        "driverRef": "donnelly",
        "number": "\\N",
        "code": "\\N",
        "forename": "Martin",
        "surname": "Donnelly",
        "dob": "1964-03-26",
        "url": "http://en.wikipedia.org/wiki/Martin_Donnelly_(racing_driver)",
        "coordinates": {
            "latitude": 51.509865,
            "longitude": -0.118092
        }
    },
    {
        "driverId": 152,
        "driverRef": "giacomelli",
        "number": "\\N",
        "code": "\\N",
        "forename": "Bruno",
        "surname": "Giacomelli",
        "dob": "1952-09-10",
        "url": "http://en.wikipedia.org/wiki/Bruno_Giacomelli",
        "coordinates": {
            "latitude": 41.902783,
            "longitude": 12.496366
        }
    },
    {
        "driverId": 153,
        "driverRef": "alguersuari",
        "number": "\\N",
        "code": "ALG",
        "forename": "Jaime",
        "surname": "Alguersuari",
        "dob": "1990-03-23",
        "url": "http://en.wikipedia.org/wiki/Jaime_Alguersuari",
        "coordinates": {
            "latitude": 40.416775,
            "longitude": -3.70379
        }
    },
    {
        "driverId": 154,
        "driverRef": "grosjean",
        "number": 8,
        "code": "GRO",
        "forename": "Romain",
        "surname": "Grosjean",
        "dob": "1986-04-17",
        "url": "http://en.wikipedia.org/wiki/Romain_Grosjean",
        "coordinates": {
            "latitude": 48.856613,
            "longitude": 2.352222
        }
    },
    {
        "driverId": 155,
        "driverRef": "kobayashi",
        "number": 10,
        "code": "KOB",
        "forename": "Kamui",
        "surname": "Kobayashi",
        "dob": "1986-09-13",
        "url": "http://en.wikipedia.org/wiki/Kamui_Kobayashi",
        "coordinates": {
            "latitude": 35.689487,
            "longitude": 139.691711
        }
    },
    {
        "driverId": 156,
        "driverRef": "palmer",
        "number": "\\N",
        "code": "\\N",
        "forename": "Jonathan",
        "surname": "Palmer",
        "dob": "1956-11-07",
        "url": "http://en.wikipedia.org/wiki/Jonathan_Palmer",
        "coordinates": {
            "latitude": 51.509865,
            "longitude": -0.118092
        }
    },
    {
        "driverId": 157,
        "driverRef": "danner",
        "number": "\\N",
        "code": "\\N",
        "forename": "Christian",
        "surname": "Danner",
        "dob": "1958-04-04",
        "url": "http://en.wikipedia.org/wiki/Christian_Danner",
        "coordinates": {
            "latitude": 51.165691,
            "longitude": 10.451526
        }
    },
    {
        "driverId": 158,
        "driverRef": "cheever",
        "number": "\\N",
        "code": "\\N",
        "forename": "Eddie",
        "surname": "Cheever",
        "dob": "1958-01-10",
        "url": "http://en.wikipedia.org/wiki/Eddie_Cheever",
        "coordinates": {
            "latitude": 37.09024,
            "longitude": -95.712891
        }
    },
    {
        "driverId": 159,
        "driverRef": "sala",
        "number": "\\N",
        "code": "\\N",
        "forename": "Luis",
        "surname": "P\u00e9rez-Sala",
        "dob": "1959-05-15",
        "url": "http://en.wikipedia.org/wiki/Luis_Perez-Sala",
        "coordinates": {
            "latitude": 40.416775,
            "longitude": -3.70379
        }
    },
    {
        "driverId": 160,
        "driverRef": "ghinzani",
        "number": "\\N",
        "code": "\\N",
        "forename": "Piercarlo",
        "surname": "Ghinzani",
        "dob": "1952-01-16",
        "url": "http://en.wikipedia.org/wiki/Piercarlo_Ghinzani",
        "coordinates": {
            "latitude": 41.902783,
            "longitude": 12.496366
        }
    },
    {
        "driverId": 161,
        "driverRef": "weidler",
        "number": "\\N",
        "code": "\\N",
        "forename": "Volker",
        "surname": "Weidler",
        "dob": "1962-03-18",
        "url": "http://en.wikipedia.org/wiki/Volker_Weidler",
        "coordinates": {
            "latitude": 51.165691,
            "longitude": 10.451526
        }
    },
    {
        "driverId": 162,
        "driverRef": "raphanel",
        "number": "\\N",
        "code": "\\N",
        "forename": "Pierre-Henri",
        "surname": "Raphanel",
        "dob": "1961-05-27",
        "url": "http://en.wikipedia.org/wiki/Pierre-Henri_Raphanel",
        "coordinates": {
            "latitude": 48.856613,
            "longitude": 2.352222
        }
    },
    {
        "driverId": 163,
        "driverRef": "arnoux",
        "number": "\\N",
        "code": "\\N",
        "forename": "Ren\u00e9",
        "surname": "Arnoux",
        "dob": "1948-07-04",
        "url": "http://en.wikipedia.org/wiki/Ren%C3%A9_Arnoux",
        "coordinates": {
            "latitude": 48.856613,
            "longitude": 2.352222
        }
    },
    {
        "driverId": 164,
        "driverRef": "joachim_winkelhock",
        "number": "\\N",
        "code": "\\N",
        "forename": "Joachim",
        "surname": "Winkelhock",
        "dob": "1960-10-24",
        "url": "http://en.wikipedia.org/wiki/Joachim_Winkelhock",
        "coordinates": {
            "latitude": 51.165691,
            "longitude": 10.451526
        }
    },
    {
        "driverId": 165,
        "driverRef": "larrauri",
        "number": "\\N",
        "code": "\\N",
        "forename": "Oscar",
        "surname": "Larrauri",
        "dob": "1954-08-19",
        "url": "http://en.wikipedia.org/wiki/Oscar_Larrauri",
        "coordinates": {
            "latitude": -38.416097,
            "longitude": -63.616672
        }
    },
    {
        "driverId": 166,
        "driverRef": "streiff",
        "number": "\\N",
        "code": "\\N",
        "forename": "Philippe",
        "surname": "Streiff",
        "dob": "1955-06-26",
        "url": "http://en.wikipedia.org/wiki/Philippe_Streiff",
        "coordinates": {
            "latitude": 48.856613,
            "longitude": 2.352222
        }
    },
    {
        "driverId": 167,
        "driverRef": "campos",
        "number": "\\N",
        "code": "\\N",
        "forename": "Adri\u00e1n",
        "surname": "Campos",
        "dob": "1960-06-17",
        "url": "http://en.wikipedia.org/wiki/Adri%C3%A1n_Campos",
        "coordinates": {
            "latitude": 40.416775,
            "longitude": -3.70379
        }
    },
    {
        "driverId": 168,
        "driverRef": "schlesser",
        "number": "\\N",
        "code": "\\N",
        "forename": "Jean-Louis",
        "surname": "Schlesser",
        "dob": "1948-09-12",
        "url": "http://en.wikipedia.org/wiki/Jean-Louis_Schlesser",
        "coordinates": {
            "latitude": 48.856613,
            "longitude": 2.352222
        }
    },
    {
        "driverId": 169,
        "driverRef": "fabre",
        "number": "\\N",
        "code": "\\N",
        "forename": "Pascal",
        "surname": "Fabre",
        "dob": "1960-01-09",
        "url": "http://en.wikipedia.org/wiki/Pascal_Fabre",
        "coordinates": {
            "latitude": 48.856613,
            "longitude": 2.352222
        }
    },
    {
        "driverId": 170,
        "driverRef": "fabi",
        "number": "\\N",
        "code": "\\N",
        "forename": "Teo",
        "surname": "Fabi",
        "dob": "1955-03-09",
        "url": "http://en.wikipedia.org/wiki/Teo_Fabi",
        "coordinates": {
            "latitude": 41.902783,
            "longitude": 12.496366
        }
    },
    {
        "driverId": 171,
        "driverRef": "forini",
        "number": "\\N",
        "code": "\\N",
        "forename": "Franco",
        "surname": "Forini",
        "dob": "1958-09-22",
        "url": "http://en.wikipedia.org/wiki/Franco_Forini",
        "coordinates": {
            "latitude": 46.818188,
            "longitude": 8.227512
        }
    },
    {
        "driverId": 172,
        "driverRef": "laffite",
        "number": "\\N",
        "code": "\\N",
        "forename": "Jacques",
        "surname": "Laffite",
        "dob": "1943-11-21",
        "url": "http://en.wikipedia.org/wiki/Jacques_Laffite",
        "coordinates": {
            "latitude": 48.856613,
            "longitude": 2.352222
        }
    },
    {
        "driverId": 173,
        "driverRef": "angelis",
        "number": "\\N",
        "code": "\\N",
        "forename": "Elio",
        "surname": "de Angelis",
        "dob": "1958-03-26",
        "url": "http://en.wikipedia.org/wiki/Elio_de_Angelis",
        "coordinates": {
            "latitude": 41.902783,
            "longitude": 12.496366
        }
    },
    {
        "driverId": 174,
        "driverRef": "dumfries",
        "number": "\\N",
        "code": "\\N",
        "forename": "Johnny",
        "surname": "Dumfries",
        "dob": "1958-04-26",
        "url": "http://en.wikipedia.org/wiki/Johnny_Dumfries",
        "coordinates": {
            "latitude": 51.509865,
            "longitude": -0.118092
        }
    },
    {
        "driverId": 175,
        "driverRef": "tambay",
        "number": "\\N",
        "code": "\\N",
        "forename": "Patrick",
        "surname": "Tambay",
        "dob": "1949-06-25",
        "url": "http://en.wikipedia.org/wiki/Patrick_Tambay",
        "coordinates": {
            "latitude": 48.856613,
            "longitude": 2.352222
        }
    },
    {
        "driverId": 176,
        "driverRef": "surer",
        "number": "\\N",
        "code": "\\N",
        "forename": "Marc",
        "surname": "Surer",
        "dob": "1951-09-18",
        "url": "http://en.wikipedia.org/wiki/Marc_Surer",
        "coordinates": {
            "latitude": 46.818188,
            "longitude": 8.227512
        }
    },
    {
        "driverId": 177,
        "driverRef": "keke_rosberg",
        "number": "\\N",
        "code": "\\N",
        "forename": "Keke",
        "surname": "Rosberg",
        "dob": "1948-12-06",
        "url": "http://en.wikipedia.org/wiki/Keke_Rosberg",
        "coordinates": {
            "latitude": 60.169856,
            "longitude": 24.938379
        }
    },
    {
        "driverId": 178,
        "driverRef": "jones",
        "number": "\\N",
        "code": "\\N",
        "forename": "Alan",
        "surname": "Jones",
        "dob": "1946-11-02",
        "url": "http://en.wikipedia.org/wiki/Alan_Jones_(Formula_1)",
        "coordinates": {
            "latitude": -25.274398,
            "longitude": 133.775136
        }
    },
    {
        "driverId": 179,
        "driverRef": "rothengatter",
        "number": "\\N",
        "code": "\\N",
        "forename": "Huub",
        "surname": "Rothengatter",
        "dob": "1954-10-08",
        "url": "http://en.wikipedia.org/wiki/Huub_Rothengatter",
        "coordinates": {
            "latitude": 52.3676,
            "longitude": 4.9041
        }
    },
    {
        "driverId": 180,
        "driverRef": "berg",
        "number": "\\N",
        "code": "\\N",
        "forename": "Allen",
        "surname": "Berg",
        "dob": "1961-08-01",
        "url": "http://en.wikipedia.org/wiki/Allen_Berg",
        "coordinates": {
            "latitude": 56.130366,
            "longitude": -106.346771
        }
    },
    {
        "driverId": 181,
        "driverRef": "manfred_winkelhock",
        "number": "\\N",
        "code": "\\N",
        "forename": "Manfred",
        "surname": "Winkelhock",
        "dob": "1951-10-06",
        "url": "http://en.wikipedia.org/wiki/Manfred_Winkelhock",
        "coordinates": {
            "latitude": 51.165691,
            "longitude": 10.451526
        }
    },
    {
        "driverId": 182,
        "driverRef": "lauda",
        "number": "\\N",
        "code": "\\N",
        "forename": "Niki",
        "surname": "Lauda",
        "dob": "1949-02-22",
        "url": "http://en.wikipedia.org/wiki/Niki_Lauda",
        "coordinates": {
            "latitude": 47.516231,
            "longitude": 14.550072
        }
    },
    {
        "driverId": 183,
        "driverRef": "hesnault",
        "number": "\\N",
        "code": "\\N",
        "forename": "Fran\u00e7ois",
        "surname": "Hesnault",
        "dob": "1956-12-30",
        "url": "http://en.wikipedia.org/wiki/Fran%C3%A7ois_Hesnault",
        "coordinates": {
            "latitude": 48.856613,
            "longitude": 2.352222
        }
    },
    {
        "driverId": 184,
        "driverRef": "baldi",
        "number": "\\N",
        "code": "\\N",
        "forename": "Mauro",
        "surname": "Baldi",
        "dob": "1954-01-31",
        "url": "http://en.wikipedia.org/wiki/Mauro_Baldi",
        "coordinates": {
            "latitude": 41.902783,
            "longitude": 12.496366
        }
    },
    {
        "driverId": 185,
        "driverRef": "bellof",
        "number": "\\N",
        "code": "\\N",
        "forename": "Stefan",
        "surname": "Bellof",
        "dob": "1957-11-20",
        "url": "http://en.wikipedia.org/wiki/Stefan_Bellof",
        "coordinates": {
            "latitude": 51.165691,
            "longitude": 10.451526
        }
    },
    {
        "driverId": 186,
        "driverRef": "acheson",
        "number": "\\N",
        "code": "\\N",
        "forename": "Kenny",
        "surname": "Acheson",
        "dob": "1957-11-27",
        "url": "http://en.wikipedia.org/wiki/Kenny_Acheson",
        "coordinates": {
            "latitude": 51.509865,
            "longitude": -0.118092
        }
    },
    {
        "driverId": 187,
        "driverRef": "watson",
        "number": "\\N",
        "code": "\\N",
        "forename": "John",
        "surname": "Watson",
        "dob": "1946-05-04",
        "url": "http://en.wikipedia.org/wiki/John_Watson_(racing_driver)",
        "coordinates": {
            "latitude": 51.509865,
            "longitude": -0.118092
        }
    },
    {
        "driverId": 188,
        "driverRef": "cecotto",
        "number": "\\N",
        "code": "\\N",
        "forename": "Johnny",
        "surname": "Cecotto",
        "dob": "1956-01-25",
        "url": "http://en.wikipedia.org/wiki/Johnny_Cecotto"
    },
    {
        "driverId": 189,
        "driverRef": "gartner",
        "number": "\\N",
        "code": "\\N",
        "forename": "Jo",
        "surname": "Gartner",
        "dob": "1954-01-24",
        "url": "http://en.wikipedia.org/wiki/Jo_Gartner",
        "coordinates": {
            "latitude": 47.516231,
            "longitude": 14.550072
        }
    },
    {
        "driverId": 190,
        "driverRef": "corrado_fabi",
        "number": "\\N",
        "code": "\\N",
        "forename": "Corrado",
        "surname": "Fabi",
        "dob": "1961-04-12",
        "url": "http://en.wikipedia.org/wiki/Corrado_Fabi",
        "coordinates": {
            "latitude": 41.902783,
            "longitude": 12.496366
        }
    },
    {
        "driverId": 191,
        "driverRef": "thackwell",
        "number": "\\N",
        "code": "\\N",
        "forename": "Mike",
        "surname": "Thackwell",
        "dob": "1961-03-30",
        "url": "http://en.wikipedia.org/wiki/Mike_Thackwell"
    },
    {
        "driverId": 192,
        "driverRef": "serra",
        "number": "\\N",
        "code": "\\N",
        "forename": "Chico",
        "surname": "Serra",
        "dob": "1957-02-03",
        "url": "http://en.wikipedia.org/wiki/Chico_Serra",
        "coordinates": {
            "latitude": -14.235004,
            "longitude": -51.92528
        }
    },
    {
        "driverId": 193,
        "driverRef": "sullivan",
        "number": "\\N",
        "code": "\\N",
        "forename": "Danny",
        "surname": "Sullivan",
        "dob": "1950-03-09",
        "url": "http://en.wikipedia.org/wiki/Danny_Sullivan",
        "coordinates": {
            "latitude": 37.09024,
            "longitude": -95.712891
        }
    },
    {
        "driverId": 194,
        "driverRef": "salazar",
        "number": "\\N",
        "code": "\\N",
        "forename": "Eliseo",
        "surname": "Salazar",
        "dob": "1954-11-14",
        "url": "http://en.wikipedia.org/wiki/Eliseo_Salazar"
    },
    {
        "driverId": 195,
        "driverRef": "guerrero",
        "number": "\\N",
        "code": "\\N",
        "forename": "Roberto",
        "surname": "Guerrero",
        "dob": "1958-11-16",
        "url": "http://en.wikipedia.org/wiki/Roberto_Guerrero",
        "coordinates": {
            "latitude": 4.570868,
            "longitude": -74.297333
        }
    },
    {
        "driverId": 196,
        "driverRef": "boesel",
        "number": "\\N",
        "code": "\\N",
        "forename": "Raul",
        "surname": "Boesel",
        "dob": "1957-12-04",
        "url": "http://en.wikipedia.org/wiki/Raul_Boesel",
        "coordinates": {
            "latitude": -14.235004,
            "longitude": -51.92528
        }
    },
    {
        "driverId": 197,
        "driverRef": "jarier",
        "number": "\\N",
        "code": "\\N",
        "forename": "Jean-Pierre",
        "surname": "Jarier",
        "dob": "1946-07-10",
        "url": "http://en.wikipedia.org/wiki/Jean-Pierre_Jarier",
        "coordinates": {
            "latitude": 48.856613,
            "longitude": 2.352222
        }
    },
    {
        "driverId": 198,
        "driverRef": "villeneuve_sr",
        "number": "\\N",
        "code": "\\N",
        "forename": "Jacques",
        "surname": "Villeneuve Sr.",
        "dob": "1953-11-04",
        "url": "http://en.wikipedia.org/wiki/Jacques_Villeneuve_(elder)",
        "coordinates": {
            "latitude": 56.130366,
            "longitude": -106.346771
        }
    },
    {
        "driverId": 199,
        "driverRef": "reutemann",
        "number": "\\N",
        "code": "\\N",
        "forename": "Carlos",
        "surname": "Reutemann",
        "dob": "1942-04-12",
        "url": "http://en.wikipedia.org/wiki/Carlos_Reutemann",
        "coordinates": {
            "latitude": -38.416097,
            "longitude": -63.616672
        }
    },
    {
        "driverId": 200,
        "driverRef": "mass",
        "number": "\\N",
        "code": "\\N",
        "forename": "Jochen",
        "surname": "Mass",
        "dob": "1946-09-30",
        "url": "http://en.wikipedia.org/wiki/Jochen_Mass",
        "coordinates": {
            "latitude": 51.165691,
            "longitude": 10.451526
        }
    },
    {
        "driverId": 201,
        "driverRef": "borgudd",
        "number": "\\N",
        "code": "\\N",
        "forename": "Slim",
        "surname": "Borgudd",
        "dob": "1946-11-25",
        "url": "http://en.wikipedia.org/wiki/Slim_Borgudd",
        "coordinates": {
            "latitude": 60.128161,
            "longitude": 18.643501
        }
    },
    {
        "driverId": 202,
        "driverRef": "pironi",
        "number": "\\N",
        "code": "\\N",
        "forename": "Didier",
        "surname": "Pironi",
        "dob": "1952-03-26",
        "url": "http://en.wikipedia.org/wiki/Didier_Pironi",
        "coordinates": {
            "latitude": 48.856613,
            "longitude": 2.352222
        }
    },
    {
        "driverId": 203,
        "driverRef": "gilles_villeneuve",
        "number": "\\N",
        "code": "\\N",
        "forename": "Gilles",
        "surname": "Villeneuve",
        "dob": "1950-01-18",
        "url": "http://en.wikipedia.org/wiki/Gilles_Villeneuve",
        "coordinates": {
            "latitude": 56.130366,
            "longitude": -106.346771
        }
    },
    {
        "driverId": 204,
        "driverRef": "paletti",
        "number": "\\N",
        "code": "\\N",
        "forename": "Riccardo",
        "surname": "Paletti",
        "dob": "1958-06-15",
        "url": "http://en.wikipedia.org/wiki/Riccardo_Paletti",
        "coordinates": {
            "latitude": 41.902783,
            "longitude": 12.496366
        }
    },
    {
        "driverId": 205,
        "driverRef": "henton",
        "number": "\\N",
        "code": "\\N",
        "forename": "Brian",
        "surname": "Henton",
        "dob": "1946-09-19",
        "url": "http://en.wikipedia.org/wiki/Brian_Henton",
        "coordinates": {
            "latitude": 51.509865,
            "longitude": -0.118092
        }
    },
    {
        "driverId": 206,
        "driverRef": "daly",
        "number": "\\N",
        "code": "\\N",
        "forename": "Derek",
        "surname": "Daly",
        "dob": "1953-03-11",
        "url": "http://en.wikipedia.org/wiki/Derek_Daly",
        "coordinates": {
            "latitude": 53.349805,
            "longitude": -6.26031
        }
    },
    {
        "driverId": 207,
        "driverRef": "mario_andretti",
        "number": "\\N",
        "code": "\\N",
        "forename": "Mario",
        "surname": "Andretti",
        "dob": "1940-02-28",
        "url": "http://en.wikipedia.org/wiki/Mario_Andretti",
        "coordinates": {
            "latitude": 37.09024,
            "longitude": -95.712891
        }
    },
    {
        "driverId": 208,
        "driverRef": "villota",
        "number": "\\N",
        "code": "\\N",
        "forename": "Emilio",
        "surname": "de Villota",
        "dob": "1946-07-26",
        "url": "http://en.wikipedia.org/wiki/Emilio_de_Villota",
        "coordinates": {
            "latitude": 40.416775,
            "longitude": -3.70379
        }
    },
    {
        "driverId": 209,
        "driverRef": "lees",
        "number": "\\N",
        "code": "\\N",
        "forename": "Geoff",
        "surname": "Lees",
        "dob": "1951-05-01",
        "url": "http://en.wikipedia.org/wiki/Geoff_Lees",
        "coordinates": {
            "latitude": 51.509865,
            "longitude": -0.118092
        }
    },
    {
        "driverId": 210,
        "driverRef": "byrne",
        "number": "\\N",
        "code": "\\N",
        "forename": "Tommy",
        "surname": "Byrne",
        "dob": "1958-05-06",
        "url": "http://en.wikipedia.org/wiki/Tommy_Byrne_%28racing_driver%29",
        "coordinates": {
            "latitude": 53.349805,
            "longitude": -6.26031
        }
    },
    {
        "driverId": 211,
        "driverRef": "keegan",
        "number": "\\N",
        "code": "\\N",
        "forename": "Rupert",
        "surname": "Keegan",
        "dob": "1955-02-26",
        "url": "http://en.wikipedia.org/wiki/Rupert_Keegan",
        "coordinates": {
            "latitude": 51.509865,
            "longitude": -0.118092
        }
    },
    {
        "driverId": 212,
        "driverRef": "rebaque",
        "number": "\\N",
        "code": "\\N",
        "forename": "Hector",
        "surname": "Rebaque",
        "dob": "1956-02-05",
        "url": "http://en.wikipedia.org/wiki/Hector_Rebaque"
    },
    {
        "driverId": 213,
        "driverRef": "gabbiani",
        "number": "\\N",
        "code": "\\N",
        "forename": "Beppe",
        "surname": "Gabbiani",
        "dob": "1957-01-02",
        "url": "http://en.wikipedia.org/wiki/Beppe_Gabbiani",
        "coordinates": {
            "latitude": 41.902783,
            "longitude": 12.496366
        }
    },
    {
        "driverId": 214,
        "driverRef": "cogan",
        "number": "\\N",
        "code": "\\N",
        "forename": "Kevin",
        "surname": "Cogan",
        "dob": "1956-03-31",
        "url": "http://en.wikipedia.org/wiki/Kevin_Cogan",
        "coordinates": {
            "latitude": 37.09024,
            "longitude": -95.712891
        }
    },
    {
        "driverId": 215,
        "driverRef": "guerra",
        "number": "\\N",
        "code": "\\N",
        "forename": "Miguel \u00c1ngel",
        "surname": "Guerra",
        "dob": "1953-08-31",
        "url": "http://en.wikipedia.org/wiki/Miguel_Angel_Guerra",
        "coordinates": {
            "latitude": -38.416097,
            "longitude": -63.616672
        }
    },
    {
        "driverId": 216,
        "driverRef": "stohr",
        "number": "\\N",
        "code": "\\N",
        "forename": "Siegfried",
        "surname": "Stohr",
        "dob": "1952-10-10",
        "url": "http://en.wikipedia.org/wiki/Siegfried_Stohr",
        "coordinates": {
            "latitude": 41.902783,
            "longitude": 12.496366
        }
    },
    {
        "driverId": 217,
        "driverRef": "zunino",
        "number": "\\N",
        "code": "\\N",
        "forename": "Ricardo",
        "surname": "Zunino",
        "dob": "1949-04-13",
        "url": "http://en.wikipedia.org/wiki/Ricardo_Zunino",
        "coordinates": {
            "latitude": -38.416097,
            "longitude": -63.616672
        }
    },
    {
        "driverId": 218,
        "driverRef": "londono",
        "number": "\\N",
        "code": "\\N",
        "forename": "Ricardo",
        "surname": "Londo\u00f1o",
        "dob": "1949-08-08",
        "url": "http://en.wikipedia.org/wiki/Ricardo_Londo%C3%B1o",
        "coordinates": {
            "latitude": 4.570868,
            "longitude": -74.297333
        }
    },
    {
        "driverId": 219,
        "driverRef": "jabouille",
        "number": "\\N",
        "code": "\\N",
        "forename": "Jean-Pierre",
        "surname": "Jabouille",
        "dob": "1942-10-01",
        "url": "http://en.wikipedia.org/wiki/Jean-Pierre_Jabouille",
        "coordinates": {
            "latitude": 48.856613,
            "longitude": 2.352222
        }
    },
    {
        "driverId": 220,
        "driverRef": "francia",
        "number": "\\N",
        "code": "\\N",
        "forename": "Giorgio",
        "surname": "Francia",
        "dob": "1947-11-08",
        "url": "http://en.wikipedia.org/wiki/Giorgio_Francia",
        "coordinates": {
            "latitude": 41.902783,
            "longitude": 12.496366
        }
    },
    {
        "driverId": 221,
        "driverRef": "depailler",
        "number": "\\N",
        "code": "\\N",
        "forename": "Patrick",
        "surname": "Depailler",
        "dob": "1944-08-09",
        "url": "http://en.wikipedia.org/wiki/Patrick_Depailler",
        "coordinates": {
            "latitude": 48.856613,
            "longitude": 2.352222
        }
    },
    {
        "driverId": 222,
        "driverRef": "scheckter",
        "number": "\\N",
        "code": "\\N",
        "forename": "Jody",
        "surname": "Scheckter",
        "dob": "1950-01-29",
        "url": "http://en.wikipedia.org/wiki/Jody_Scheckter"
    },
    {
        "driverId": 223,
        "driverRef": "regazzoni",
        "number": "\\N",
        "code": "\\N",
        "forename": "Clay",
        "surname": "Regazzoni",
        "dob": "1939-09-05",
        "url": "http://en.wikipedia.org/wiki/Clay_Regazzoni",
        "coordinates": {
            "latitude": 46.818188,
            "longitude": 8.227512
        }
    },
    {
        "driverId": 224,
        "driverRef": "emerson_fittipaldi",
        "number": "\\N",
        "code": "\\N",
        "forename": "Emerson",
        "surname": "Fittipaldi",
        "dob": "1946-12-12",
        "url": "http://en.wikipedia.org/wiki/Emerson_Fittipaldi",
        "coordinates": {
            "latitude": -14.235004,
            "longitude": -51.92528
        }
    },
    {
        "driverId": 225,
        "driverRef": "kennedy",
        "number": "\\N",
        "code": "\\N",
        "forename": "Dave",
        "surname": "Kennedy",
        "dob": "1953-01-15",
        "url": "http://en.wikipedia.org/wiki/David_Kennedy_(racing_driver)",
        "coordinates": {
            "latitude": 53.349805,
            "longitude": -6.26031
        }
    },
    {
        "driverId": 226,
        "driverRef": "south",
        "number": "\\N",
        "code": "\\N",
        "forename": "Stephen",
        "surname": "South",
        "dob": "1952-02-19",
        "url": "http://en.wikipedia.org/wiki/Stephen_South",
        "coordinates": {
            "latitude": 51.509865,
            "longitude": -0.118092
        }
    },
    {
        "driverId": 227,
        "driverRef": "needell",
        "number": "\\N",
        "code": "\\N",
        "forename": "Tiff",
        "surname": "Needell",
        "dob": "1951-10-29",
        "url": "http://en.wikipedia.org/wiki/Tiff_Needell",
        "coordinates": {
            "latitude": 51.509865,
            "longitude": -0.118092
        }
    },
    {
        "driverId": 228,
        "driverRef": "desire_wilson",
        "number": "\\N",
        "code": "\\N",
        "forename": "Desir\u00e9",
        "surname": "Wilson",
        "dob": "1953-11-26",
        "url": "http://en.wikipedia.org/wiki/Desir%C3%A9_Wilson"
    },
    {
        "driverId": 229,
        "driverRef": "ertl",
        "number": "\\N",
        "code": "\\N",
        "forename": "Harald",
        "surname": "Ertl",
        "dob": "1948-08-31",
        "url": "http://en.wikipedia.org/wiki/Harald_Ertl",
        "coordinates": {
            "latitude": 47.516231,
            "longitude": 14.550072
        }
    },
    {
        "driverId": 230,
        "driverRef": "brambilla",
        "number": "\\N",
        "code": "\\N",
        "forename": "Vittorio",
        "surname": "Brambilla",
        "dob": "1937-11-11",
        "url": "http://en.wikipedia.org/wiki/Vittorio_Brambilla",
        "coordinates": {
            "latitude": 41.902783,
            "longitude": 12.496366
        }
    },
    {
        "driverId": 231,
        "driverRef": "hunt",
        "number": "\\N",
        "code": "\\N",
        "forename": "James",
        "surname": "Hunt",
        "dob": "1947-08-29",
        "url": "http://en.wikipedia.org/wiki/James_Hunt",
        "coordinates": {
            "latitude": 51.509865,
            "longitude": -0.118092
        }
    },
    {
        "driverId": 232,
        "driverRef": "merzario",
        "number": "\\N",
        "code": "\\N",
        "forename": "Arturo",
        "surname": "Merzario",
        "dob": "1943-03-11",
        "url": "http://en.wikipedia.org/wiki/Arturo_Merzario",
        "coordinates": {
            "latitude": 41.902783,
            "longitude": 12.496366
        }
    },
    {
        "driverId": 233,
        "driverRef": "stuck",
        "number": "\\N",
        "code": "\\N",
        "forename": "Hans-Joachim",
        "surname": "Stuck",
        "dob": "1951-01-01",
        "url": "http://en.wikipedia.org/wiki/Hans_Joachim_Stuck",
        "coordinates": {
            "latitude": 51.165691,
            "longitude": 10.451526
        }
    },
    {
        "driverId": 234,
        "driverRef": "brancatelli",
        "number": "\\N",
        "code": "\\N",
        "forename": "Gianfranco",
        "surname": "Brancatelli",
        "dob": "1950-01-18",
        "url": "http://en.wikipedia.org/wiki/Gianfranco_Brancatelli",
        "coordinates": {
            "latitude": 41.902783,
            "longitude": 12.496366
        }
    },
    {
        "driverId": 235,
        "driverRef": "ickx",
        "number": "\\N",
        "code": "\\N",
        "forename": "Jacky",
        "surname": "Ickx",
        "dob": "1945-01-01",
        "url": "http://en.wikipedia.org/wiki/Jacky_Ickx",
        "coordinates": {
            "latitude": 50.503887,
            "longitude": 4.469936
        }
    },
    {
        "driverId": 236,
        "driverRef": "gaillard",
        "number": "\\N",
        "code": "\\N",
        "forename": "Patrick",
        "surname": "Gaillard",
        "dob": "1952-02-12",
        "url": "http://en.wikipedia.org/wiki/Patrick_Gaillard",
        "coordinates": {
            "latitude": 48.856613,
            "longitude": 2.352222
        }
    },
    {
        "driverId": 237,
        "driverRef": "ribeiro",
        "number": "\\N",
        "code": "\\N",
        "forename": "Alex",
        "surname": "Ribeiro",
        "dob": "1948-11-07",
        "url": "http://en.wikipedia.org/wiki/Alex_Ribeiro",
        "coordinates": {
            "latitude": -14.235004,
            "longitude": -51.92528
        }
    },
    {
        "driverId": 238,
        "driverRef": "peterson",
        "number": "\\N",
        "code": "\\N",
        "forename": "Ronnie",
        "surname": "Peterson",
        "dob": "1944-02-14",
        "url": "http://en.wikipedia.org/wiki/Ronnie_Peterson",
        "coordinates": {
            "latitude": 60.128161,
            "longitude": 18.643501
        }
    },
    {
        "driverId": 239,
        "driverRef": "lunger",
        "number": "\\N",
        "code": "\\N",
        "forename": "Brett",
        "surname": "Lunger",
        "dob": "1945-11-14",
        "url": "http://en.wikipedia.org/wiki/Brett_Lunger",
        "coordinates": {
            "latitude": 37.09024,
            "longitude": -95.712891
        }
    },
    {
        "driverId": 240,
        "driverRef": "ongais",
        "number": "\\N",
        "code": "\\N",
        "forename": "Danny",
        "surname": "Ongais",
        "dob": "1942-05-21",
        "url": "http://en.wikipedia.org/wiki/Danny_Ongais",
        "coordinates": {
            "latitude": 37.09024,
            "longitude": -95.712891
        }
    },
    {
        "driverId": 241,
        "driverRef": "leoni",
        "number": "\\N",
        "code": "\\N",
        "forename": "Lamberto",
        "surname": "Leoni",
        "dob": "1953-05-24",
        "url": "http://en.wikipedia.org/wiki/Lamberto_Leoni",
        "coordinates": {
            "latitude": 41.902783,
            "longitude": 12.496366
        }
    },
    {
        "driverId": 242,
        "driverRef": "galica",
        "number": "\\N",
        "code": "\\N",
        "forename": "Divina",
        "surname": "Galica",
        "dob": "1944-08-13",
        "url": "http://en.wikipedia.org/wiki/Divina_Galica",
        "coordinates": {
            "latitude": 51.509865,
            "longitude": -0.118092
        }
    },
    {
        "driverId": 243,
        "driverRef": "stommelen",
        "number": "\\N",
        "code": "\\N",
        "forename": "Rolf",
        "surname": "Stommelen",
        "dob": "1943-07-11",
        "url": "http://en.wikipedia.org/wiki/Rolf_Stommelen",
        "coordinates": {
            "latitude": 51.165691,
            "longitude": 10.451526
        }
    },
    {
        "driverId": 244,
        "driverRef": "colombo",
        "number": "\\N",
        "code": "\\N",
        "forename": "Alberto",
        "surname": "Colombo",
        "dob": "1946-02-23",
        "url": "http://en.wikipedia.org/wiki/Alberto_Colombo",
        "coordinates": {
            "latitude": 41.902783,
            "longitude": 12.496366
        }
    },
    {
        "driverId": 245,
        "driverRef": "trimmer",
        "number": "\\N",
        "code": "\\N",
        "forename": "Tony",
        "surname": "Trimmer",
        "dob": "1943-01-24",
        "url": "http://en.wikipedia.org/wiki/Tony_Trimmer",
        "coordinates": {
            "latitude": 51.509865,
            "longitude": -0.118092
        }
    },
    {
        "driverId": 246,
        "driverRef": "binder",
        "number": "\\N",
        "code": "\\N",
        "forename": "Hans",
        "surname": "Binder",
        "dob": "1948-06-12",
        "url": "http://en.wikipedia.org/wiki/Hans_Binder",
        "coordinates": {
            "latitude": 47.516231,
            "longitude": 14.550072
        }
    },
    {
        "driverId": 247,
        "driverRef": "bleekemolen",
        "number": "\\N",
        "code": "\\N",
        "forename": "Michael",
        "surname": "Bleekemolen",
        "dob": "1949-10-02",
        "url": "http://en.wikipedia.org/wiki/Michael_Bleekemolen",
        "coordinates": {
            "latitude": 52.3676,
            "longitude": 4.9041
        }
    },
    {
        "driverId": 248,
        "driverRef": "gimax",
        "number": "\\N",
        "code": "\\N",
        "forename": "Carlo",
        "surname": "Franchi",
        "dob": "1938-01-01",
        "url": "http://en.wikipedia.org/wiki/Gimax",
        "coordinates": {
            "latitude": 41.902783,
            "longitude": 12.496366
        }
    },
    {
        "driverId": 249,
        "driverRef": "rahal",
        "number": "\\N",
        "code": "\\N",
        "forename": "Bobby",
        "surname": "Rahal",
        "dob": "1953-01-10",
        "url": "http://en.wikipedia.org/wiki/Bobby_Rahal",
        "coordinates": {
            "latitude": 37.09024,
            "longitude": -95.712891
        }
    },
    {
        "driverId": 250,
        "driverRef": "pace",
        "number": "\\N",
        "code": "\\N",
        "forename": "Carlos",
        "surname": "Pace",
        "dob": "1944-10-06",
        "url": "http://en.wikipedia.org/wiki/Carlos_Pace",
        "coordinates": {
            "latitude": -14.235004,
            "longitude": -51.92528
        }
    },
    {
        "driverId": 251,
        "driverRef": "ian_scheckter",
        "number": "\\N",
        "code": "\\N",
        "forename": "Ian",
        "surname": "Scheckter",
        "dob": "1947-08-22",
        "url": "http://en.wikipedia.org/wiki/Ian_Scheckter"
    },
    {
        "driverId": 252,
        "driverRef": "pryce",
        "number": "\\N",
        "code": "\\N",
        "forename": "Tom",
        "surname": "Pryce",
        "dob": "1949-06-11",
        "url": "http://en.wikipedia.org/wiki/Tom_Pryce",
        "coordinates": {
            "latitude": 51.509865,
            "longitude": -0.118092
        }
    },
    {
        "driverId": 253,
        "driverRef": "hoffmann",
        "number": "\\N",
        "code": "\\N",
        "forename": "Ingo",
        "surname": "Hoffmann",
        "dob": "1953-02-28",
        "url": "http://en.wikipedia.org/wiki/Ingo_Hoffmann",
        "coordinates": {
            "latitude": -14.235004,
            "longitude": -51.92528
        }
    },
    {
        "driverId": 254,
        "driverRef": "zorzi",
        "number": "\\N",
        "code": "\\N",
        "forename": "Renzo",
        "surname": "Zorzi",
        "dob": "1946-12-12",
        "url": "http://en.wikipedia.org/wiki/Renzo_Zorzi",
        "coordinates": {
            "latitude": 41.902783,
            "longitude": 12.496366
        }
    },
    {
        "driverId": 255,
        "driverRef": "nilsson",
        "number": "\\N",
        "code": "\\N",
        "forename": "Gunnar",
        "surname": "Nilsson",
        "dob": "1948-11-20",
        "url": "http://en.wikipedia.org/wiki/Gunnar_Nilsson",
        "coordinates": {
            "latitude": 60.128161,
            "longitude": 18.643501
        }
    },
    {
        "driverId": 256,
        "driverRef": "perkins",
        "number": "\\N",
        "code": "\\N",
        "forename": "Larry",
        "surname": "Perkins",
        "dob": "1950-03-18",
        "url": "http://en.wikipedia.org/wiki/Larry_Perkins",
        "coordinates": {
            "latitude": -25.274398,
            "longitude": 133.775136
        }
    },
    {
        "driverId": 257,
        "driverRef": "hayje",
        "number": "\\N",
        "code": "\\N",
        "forename": "Boy",
        "surname": "Lunger",
        "dob": "1949-05-03",
        "url": "http://en.wikipedia.org/wiki/Boy_Hayje",
        "coordinates": {
            "latitude": 52.3676,
            "longitude": 4.9041
        }
    },
    {
        "driverId": 258,
        "driverRef": "neve",
        "number": "\\N",
        "code": "\\N",
        "forename": "Patrick",
        "surname": "N\u00e8ve",
        "dob": "1949-10-13",
        "url": "http://en.wikipedia.org/wiki/Patrick_Neve",
        "coordinates": {
            "latitude": 50.503887,
            "longitude": 4.469936
        }
    },
    {
        "driverId": 259,
        "driverRef": "purley",
        "number": "\\N",
        "code": "\\N",
        "forename": "David",
        "surname": "Purley",
        "dob": "1945-01-26",
        "url": "http://en.wikipedia.org/wiki/David_Purley",
        "coordinates": {
            "latitude": 51.509865,
            "longitude": -0.118092
        }
    },
    {
        "driverId": 260,
        "driverRef": "andersson",
        "number": "\\N",
        "code": "\\N",
        "forename": "Conny",
        "surname": "Andersson",
        "dob": "1939-12-28",
        "url": "http://en.wikipedia.org/wiki/Conny_Andersson_(racing_driver)",
        "coordinates": {
            "latitude": 60.128161,
            "longitude": 18.643501
        }
    },
    {
        "driverId": 261,
        "driverRef": "dryver",
        "number": "\\N",
        "code": "\\N",
        "forename": "Bernard",
        "surname": "de Dryver",
        "dob": "1952-09-19",
        "url": "http://en.wikipedia.org/wiki/Bernard_de_Dryver",
        "coordinates": {
            "latitude": 50.503887,
            "longitude": 4.469936
        }
    },
    {
        "driverId": 262,
        "driverRef": "oliver",
        "number": "\\N",
        "code": "\\N",
        "forename": "Jackie",
        "surname": "Oliver",
        "dob": "1942-08-14",
        "url": "http://en.wikipedia.org/wiki/Jackie_Oliver",
        "coordinates": {
            "latitude": 51.509865,
            "longitude": -0.118092
        }
    },
    {
        "driverId": 263,
        "driverRef": "kozarowitzky",
        "number": "\\N",
        "code": "\\N",
        "forename": "Mikko",
        "surname": "Kozarowitzky",
        "dob": "1948-05-17",
        "url": "http://en.wikipedia.org/wiki/Mikko_Kozarowitzky",
        "coordinates": {
            "latitude": 60.169856,
            "longitude": 24.938379
        }
    },
    {
        "driverId": 264,
        "driverRef": "sutcliffe",
        "number": "\\N",
        "code": "\\N",
        "forename": "Andy",
        "surname": "Sutcliffe",
        "dob": "1947-05-09",
        "url": "http://en.wikipedia.org/wiki/Andy_Sutcliffe",
        "coordinates": {
            "latitude": 51.509865,
            "longitude": -0.118092
        }
    },
    {
        "driverId": 265,
        "driverRef": "edwards",
        "number": "\\N",
        "code": "\\N",
        "forename": "Guy",
        "surname": "Edwards",
        "dob": "1942-12-30",
        "url": "http://en.wikipedia.org/wiki/Guy_Edwards",
        "coordinates": {
            "latitude": 51.509865,
            "longitude": -0.118092
        }
    },
    {
        "driverId": 266,
        "driverRef": "mcguire",
        "number": "\\N",
        "code": "\\N",
        "forename": "Brian",
        "surname": "McGuire",
        "dob": "1945-12-13",
        "url": "http://en.wikipedia.org/wiki/Brian_McGuire",
        "coordinates": {
            "latitude": -25.274398,
            "longitude": 133.775136
        }
    },
    {
        "driverId": 267,
        "driverRef": "schuppan",
        "number": "\\N",
        "code": "\\N",
        "forename": "Vern",
        "surname": "Schuppan",
        "dob": "1943-03-19",
        "url": "http://en.wikipedia.org/wiki/Vern_Schuppan",
        "coordinates": {
            "latitude": -25.274398,
            "longitude": 133.775136
        }
    },
    {
        "driverId": 268,
        "driverRef": "heyer",
        "number": "\\N",
        "code": "\\N",
        "forename": "Hans",
        "surname": "Heyer",
        "dob": "1943-03-16",
        "url": "http://en.wikipedia.org/wiki/Hans_Heyer",
        "coordinates": {
            "latitude": 51.165691,
            "longitude": 10.451526
        }
    },